{
    "50": {
        "type": "FeatureCollection",
        "features": [
            {
                "type": "Feature",
                "geometry": {
                    "type": "Point",
                    "coordinates": [
                        4.3517,
                        50.8503
                    ]
                },
                "properties": {
                    "country": "欧盟",
                    "time": "",
                    "flagName": "oumeng",
                    "type": 0
                }
            },
            {
                "type": "Feature",
                "geometry": {
                    "type": "Point",
                    "coordinates": [
                        -77.0369,
                        38.9072
                    ]
                },
                "properties": {
                    "country": "美国",
                    "time": "",
                    "flagName": "meiguo",
                    "type": 0
                }
            },
            {
                "type": "Feature",
                "geometry": {
                    "type": "Point",
                    "coordinates": [
                        46.7218,
                        24.6877
                    ]
                },
                "properties": {
                    "country": "沙特",
                    "time": "",
                    "flagName": "shate",
                    "type": 0
                }
            },
            {
                "type": "Feature",
                "geometry": {
                    "type": "Point",
                    "coordinates": [
                        77.1025,
                        28.7041
                    ]
                },
                "properties": {
                    "country": "印度",
                    "time": "",
                    "flagName": "yindu",
                    "type": 0
                }
            },
            {
                "type": "Feature",
                "geometry": {
                    "type": "Point",
                    "coordinates": [
                        -47.9292,
                        -15.7939
                    ]
                },
                "properties": {
                    "country": "巴西",
                    "time": "",
                    "flagName": "baxi",
                    "type": 0
                }
            },
            {
                "type": "Feature",
                "geometry": {
                    "type": "Point",
                    "coordinates": [
                        -0.1276,
                        51.5072
                    ]
                },
                "properties": {
                    "country": "英国",
                    "time": "",
                    "flagName": "yingguo",
                    "type": 0
                }
            },
            {
                "type": "Feature",
                "geometry": {
                    "type": "Point",
                    "coordinates": [
                        -99.1332,
                        19.4326
                    ]
                },
                "properties": {
                    "country": "墨西哥",
                    "time": "",
                    "flagName": "moxige",
                    "type": 0
                }
            },
            {
                "type": "Feature",
                "geometry": {
                    "type": "Point",
                    "coordinates": [
                        54.3705,
                        24.4667
                    ]
                },
                "properties": {
                    "country": "阿联酋",
                    "time": "",
                    "flagName": "alianqiu",
                    "type": 0
                }
            },
            {
                "type": "Feature",
                "geometry": {
                    "type": "Point",
                    "coordinates": [
                        149.1300,
                        -35.2809
                    ]
                },
                "properties": {
                    "country": "澳大利亚",
                    "time": "",
                    "flagName": "aodaliya",
                    "type": 0
                }
            },
            {
                "type": "Feature",
                "geometry": {
                    "type": "Point",
                    "coordinates": [
                        126.9780,
                        37.5665
                    ]
                },
                "properties": {
                    "country": "韩国",
                    "time": "",
                    "flagName": "hanguo",
                    "type": 0
                }
            }
        ]
    }
}